City_ID,City,Lat,Lng,Max Temp,Humidity,Cloudiness,Wind Speed,Country,Date
0,anadyr,64.75,177.4833,271.43,74,40,3.0,RU,1681943835
1,camacupa,-12.0167,17.4833,288.84,77,43,1.15,AO,1681944226
2,gataia,45.4311,21.43,281.94,90,35,0.98,RO,1681944227
3,saldanha,-33.0117,17.9442,287.18,84,100,6.92,ZA,1681943835
4,talnakh,69.4865,88.3972,256.34,96,95,3.24,RU,1681943767
5,obihiro,42.9172,143.2044,283.4,62,95,1.14,JP,1681944227
6,port-aux-francais,-49.35,70.2167,277.94,66,27,15.82,TF,1681943761
7,kerikeri,-35.2268,173.9474,294.77,96,96,0.89,NZ,1681943924
8,malyn,50.7723,29.2383,280.72,82,100,3.87,UA,1681944228
9,margaret river,-33.95,115.0667,285.77,62,0,3.73,AU,1681943766
10,palikir - national government center,6.9248,158.1611,298.62,100,100,5.14,FM,1681944228
11,hawaiian paradise park,19.5933,-154.9731,297.54,95,100,4.63,US,1681943654
12,dzhalagash,45.0833,64.6667,281.06,28,33,4.4,KZ,1681943929
13,dudinka,69.4058,86.1778,250.24,100,97,2.6,RU,1681943851
14,ubari,26.5921,12.7805,295.33,19,0,4.65,LY,1681944229
15,papatowai,-46.5619,169.4708,287.31,75,61,1.01,NZ,1681943789
16,namibe,-15.1961,12.1522,298.38,73,42,1.54,AO,1681943867
17,bol,13.4586,14.7147,302.27,43,0,3.05,TD,1681944229
18,guarapari,-20.6667,-40.4975,300.31,93,85,3.86,BR,1681944229
19,tuy hoa,13.0833,109.3,298.36,76,21,2.26,VN,1681944230
20,constantia,44.1833,28.65,283.54,93,100,5.27,RO,1681943704
21,summerside,46.3959,-63.7876,281.22,81,100,2.57,CA,1681944230
22,waitangi,-43.9535,-176.5597,290.83,89,95,4.92,NZ,1681943768
23,thompson,55.7435,-97.8558,275.24,41,75,5.66,CA,1681943800
24,bilibino,68.0546,166.4372,271.18,82,100,1.37,RU,1681943771
25,college,64.8569,-147.8028,275.82,50,40,2.06,US,1681943764
26,mahibadhoo,3.7833,72.9667,301.37,69,100,0.36,MV,1681944231
27,gwanda,-20.9333,29.0,287.98,65,2,2.48,ZW,1681944231
28,kitui,-1.367,38.0106,290.58,97,70,1.77,KE,1681944231
29,enewetak,11.3474,162.3373,298.98,86,100,10.11,MH,1681943822
30,rio verde de mato grosso,-18.9181,-54.8442,293.8,85,63,2.12,BR,1681944231
31,ushuaia,-54.8,-68.3,278.96,75,40,8.23,AR,1681943779
32,nguigmi,14.2495,13.1092,304.48,17,0,4.16,NE,1681943911
33,nar'yan-mar,67.6713,53.087,272.92,98,100,6.3,RU,1681943917
34,yellowknife,62.456,-114.3525,278.46,45,20,3.6,CA,1681943701
35,hermanus,-34.4187,19.2345,286.37,60,100,3.64,ZA,1681943800
36,aasiaat,68.7098,-52.8699,259.23,90,63,1.2,GL,1681943858
37,portland,45.5234,-122.6762,283.68,82,100,5.14,US,1681943868
38,invercargill,-46.4,168.35,284.83,82,93,0.89,NZ,1681943762
39,badger,64.8,-147.5333,275.77,49,40,2.06,US,1681943848
40,yeppoon,-23.1333,150.7333,296.03,66,21,6.26,AU,1681944235
41,bredasdorp,-34.5322,20.0403,289.4,67,100,1.53,ZA,1681943832
42,yei,4.095,30.6779,293.95,85,96,1.38,SS,1681944235
43,ad dabbah,18.05,30.95,301.34,9,0,4.63,SD,1681943809
44,ribeira grande,38.5167,-28.7,286.37,62,40,5.66,PT,1681943804
45,naxos,37.1056,25.3764,289.43,80,4,4.02,GR,1681944235
46,grytviken,-54.2811,-36.5092,276.57,96,100,1.92,GS,1681943782
47,wangaratta,-36.3667,146.3333,285.4,68,0,1.46,AU,1681944236
48,hinton,53.4001,-117.5857,280.69,54,95,3.43,CA,1681944236
49,lihue,21.9789,-159.3672,300.02,64,20,2.06,US,1681943735
50,kingston,17.997,-76.7936,301.68,82,20,8.75,JM,1681943630
51,adamstown,-25.066,-130.1015,297.77,77,88,2.44,PN,1681943759
52,kodiak,57.79,-152.4072,280.88,61,100,4.12,US,1681943817
53,vernon,50.2581,-119.2691,286.44,38,100,2.68,CA,1681944237
54,carutapera,-1.195,-46.02,297.38,93,100,1.37,BR,1681943825
55,edinburgh of the seven seas,-37.0676,-12.3116,291.51,79,100,9.96,SH,1681943763
56,rongelap,11.1635,166.8941,299.25,84,87,8.99,MH,1681944238
57,rapla,59.0072,24.7928,277.99,66,6,2.3,EE,1681944238
58,klyuchi,52.2667,79.1667,266.24,83,7,3.37,RU,1681943805
59,castillos,-34.1667,-53.8333,287.52,71,79,5.83,UY,1681944238
60,happy valley-goose bay,53.3168,-60.3315,278.32,75,100,1.54,CA,1681943787
61,katangi,23.45,79.7833,300.66,24,95,1.86,IN,1681944238
62,ust-nera,64.5667,143.2,264.58,91,100,3.93,RU,1681943763
63,saint-joseph,-21.3667,55.6167,297.36,82,24,5.19,RE,1681943843
64,igarka,67.4667,86.5833,252.32,100,90,0.62,RU,1681943754
65,puerto deseado,-47.7503,-65.8938,291.76,41,45,7.81,AR,1681943500
66,tiksi,71.6872,128.8694,252.71,100,100,1.81,RU,1681943842
67,whitehorse,60.7161,-135.0538,279.83,52,75,2.06,CA,1681943786
68,lebu,-37.6167,-73.65,286.21,91,86,7.75,CL,1681943542
69,brandon,27.9378,-82.2859,302.33,47,0,5.66,US,1681944113
70,itaituba,-4.2761,-55.9836,297.5,96,86,0.75,BR,1681944240
71,koryazhma,61.3143,47.1691,271.64,96,62,1.27,RU,1681944240
72,gizo,-8.103,156.8419,301.23,63,12,1.75,SB,1681944240
73,puerto ayora,-0.7393,-90.3518,300.13,100,100,4.69,EC,1681943770
74,longyearbyen,78.2186,15.6401,263.06,73,20,2.06,SJ,1681943781
75,avarua,-21.2078,-159.775,299.18,89,75,7.72,CK,1681943833
76,coahuayana de hidalgo,18.7,-103.6583,302.62,51,34,3.32,MX,1681944241
77,tymovskoye,50.8456,142.655,277.46,81,37,0.45,RU,1681944241
78,bethel,41.3712,-73.414,287.6,50,0,3.6,US,1681943686
79,iqaluit,63.7506,-68.5145,265.0,93,100,1.03,CA,1681943521
80,lazaro cardenas,17.9583,-102.2,301.6,60,30,4.77,MX,1681943921
81,yaren,-0.5472,166.916,301.83,72,100,5.84,NR,1681943884
82,saipan,15.1355,145.701,301.54,100,40,6.69,MP,1681943830
83,puerto natales,-51.7236,-72.4875,281.48,77,78,6.33,CL,1681943798
84,chui,-33.6971,-53.4616,287.58,72,53,4.73,UY,1681944243
85,jamestown,42.097,-79.2353,284.95,43,0,4.12,US,1681943765
86,sainte-marie,-20.8968,55.5496,298.24,81,75,4.63,RE,1681944243
87,stanley,54.868,-1.6985,279.2,94,20,2.57,GB,1681943801
88,papao,-17.75,-149.55,303.97,79,99,6.94,PF,1681944244
89,tazacorte,28.629,-17.9293,292.69,85,100,2.06,ES,1681943778
90,santa terezinha,-29.9002,-50.0904,287.54,76,87,5.35,BR,1681944244
91,wad rawah,15.1603,33.1397,303.17,8,0,4.77,SD,1681944245
92,kencong,-8.2833,113.3667,297.29,91,73,0.84,ID,1681944245
93,abu dhabi,24.4667,54.3667,299.23,60,0,1.54,AE,1681944154
94,tete,-16.1564,33.5867,292.2,100,0,0.0,MZ,1681944245
95,santiago del estero,-27.7951,-64.2615,294.01,45,2,2.64,AR,1681944245
96,tionk essil,12.7856,-16.5217,299.18,51,19,6.22,SN,1681944246
97,as sulayyil,20.4607,45.5779,293.29,74,65,5.88,SA,1681943884
98,antofagasta,-23.65,-70.4,290.75,85,26,2.04,CL,1681944246
99,revda,56.801,59.9303,273.65,70,99,1.42,RU,1681943821
100,albany,42.6001,-73.9662,279.62,70,83,0.45,US,1681944002
101,altamont,42.2068,-121.7372,280.04,54,75,9.77,US,1681944247
102,punta arenas,-53.15,-70.9167,280.21,70,20,16.98,CL,1681943540
103,pangkalanbuun,-2.6833,111.6167,297.1,96,61,0.96,ID,1681944247
104,uturoa,-16.7333,-151.4333,301.32,78,88,6.61,PF,1681943784
105,taghazout,30.5426,-9.7112,292.58,85,2,1.96,MA,1681944247
106,mariakani,-3.8633,39.4736,296.61,91,70,3.44,KE,1681944248
107,vorgashor,67.5833,63.95,265.77,97,100,3.7,RU,1681943800
108,uttar char fasson,22.2332,90.7132,301.22,82,69,6.31,BD,1681944248
109,port elizabeth,-33.918,25.5701,293.32,87,0,2.06,ZA,1681943795
110,nova sintra,14.8667,-24.7167,293.28,76,88,7.84,CV,1681943904
111,new plymouth,-39.0667,174.0833,294.02,100,91,3.03,NZ,1681944248
112,sergeyevka,53.88,67.4158,272.54,53,0,2.71,KZ,1681944249
113,olonkinbyen,70.9221,-8.7187,275.3,92,45,10.09,SJ,1681943816
114,bagan serai,5.0108,100.541,298.16,94,100,1.05,MY,1681944249
115,fort mcmurray,56.7268,-111.381,276.92,65,100,6.69,CA,1681943918
116,gaspe,48.8334,-64.4819,278.27,93,75,1.54,CA,1681943766
117,chonchi,-42.6128,-73.8092,287.1,99,95,0.75,CL,1681943823
118,panitian,9.0965,118.0864,300.88,80,89,2.08,PH,1681944250
119,wailua homesteads,22.0669,-159.378,299.68,64,20,2.68,US,1681943798
120,atafu village,-8.5421,-172.5159,301.47,70,100,1.59,TK,1681943812
121,agat village,13.3886,144.6585,301.68,74,40,6.17,GU,1681944250
122,flying fish cove,-10.4217,105.6791,300.33,77,81,8.01,CX,1681943764
123,shalqar,47.8333,59.6,282.28,37,95,2.18,KZ,1681944251
124,la passe,45.5549,-0.8967,287.28,85,0,3.79,FR,1681943788
125,sotkamo,64.1333,28.4167,273.16,99,100,2.5,FI,1681944251
126,maun,-19.9833,23.4167,293.13,32,0,3.6,BW,1681944252
127,olyokminsk,60.3736,120.4264,268.89,82,100,0.99,RU,1681943899
128,khandud,36.9513,72.318,271.4,85,100,0.86,AF,1681944252
129,masterton,-40.9597,175.6575,290.31,91,97,1.84,NZ,1681944252
130,ulety,51.3572,112.4849,264.21,62,51,9.37,RU,1681944253
131,le port,-20.9373,55.2919,298.15,92,18,2.92,RE,1681944253
132,port shepstone,-30.7414,30.455,293.58,41,0,3.83,ZA,1681943915
133,carnarvon,-24.8667,113.6333,296.11,44,84,6.7,AU,1681943774
134,santa cruz do sul,-29.7175,-52.4258,288.27,55,93,4.5,BR,1681943970
135,naha,26.2125,127.6811,298.53,94,75,8.75,JP,1681944254
136,codajas,-3.8367,-62.0569,298.21,91,100,1.2,BR,1681944254
137,yelan',50.949,43.7378,280.54,53,91,3.81,RU,1681944254
138,hadibu,12.65,54.0333,300.28,75,10,2.71,YE,1681943803
139,paragominas,-2.9667,-47.4833,296.68,97,99,0.98,BR,1681944254
140,abhar,36.1468,49.218,286.73,42,19,0.87,IR,1681944255
141,port-vila,-17.7338,168.3219,301.93,70,20,0.51,VU,1681944255
142,lorain,41.3334,-82.1499,291.61,62,20,5.14,US,1681944256
143,kannur,11.8675,75.3576,299.64,83,52,1.16,IN,1681944256
144,kongsvinger,60.1905,11.9977,279.52,32,9,1.88,NO,1681944257
145,east london,-33.0153,27.9116,300.32,29,37,4.66,ZA,1681943857
146,la'ie,21.6477,-157.9253,302.53,59,100,1.34,US,1681943683
147,sao bento,-6.2833,-37.75,297.81,62,85,2.2,BR,1681944258
148,quellon,-43.1167,-73.6167,286.29,100,100,2.06,CL,1681943810
149,saint-louis,16.3333,-15.0,303.95,24,78,5.03,SN,1681944258
150,ponta delgada,37.7333,-25.6667,289.55,94,75,9.26,PT,1681943872
151,zhumadian,32.9794,114.0294,292.63,90,0,2.13,CN,1681944016
152,magistral'nyy,56.1725,107.4458,264.16,71,100,2.16,RU,1681944259
153,west island,-12.1568,96.8225,300.14,89,75,8.23,CC,1681943825
154,hithadhoo,-0.6,73.0833,301.63,72,100,2.19,MV,1681943862
155,vadso,70.0744,29.7487,277.64,87,75,5.66,NO,1681943832
156,villa de reyes,21.8,-100.9333,303.45,10,87,5.88,MX,1681944259
157,gorontalo,0.5412,123.0595,298.72,87,11,1.0,ID,1681944260
158,kone,-21.0595,164.8658,300.16,68,2,1.04,NC,1681944260
159,kapa'a,22.0752,-159.319,300.43,64,20,2.68,US,1681943861
160,tolanaro,-25.0319,46.9987,297.19,88,20,3.09,MG,1681943784
161,port mathurin,-19.6833,63.4167,299.05,77,14,8.83,MU,1681943784
162,petropavlovsk-kamchatsky,53.0452,158.6483,277.48,56,75,7.0,RU,1681943826
163,oppdal,62.5943,9.6912,276.13,71,65,1.37,NO,1681944261
164,santa ana de yacuma,-13.75,-65.4333,299.12,89,75,5.14,BO,1681944261
165,udachny,66.4167,112.4,259.93,96,99,1.73,RU,1681943809
166,awjilah,29.1081,21.2869,290.6,41,0,4.14,LY,1681944262
167,st. john's,47.5649,-52.7093,275.19,93,100,6.17,CA,1681943817
168,la gi,10.6667,107.7833,299.87,86,75,2.07,VN,1681944262
169,erbaa,40.6689,36.5675,286.17,92,100,0.51,TR,1681944262
170,shihezi,44.3,86.0333,278.61,42,39,2.24,CN,1681944262
171,kerema,-7.9631,145.7785,300.32,75,45,1.04,PG,1681943849
172,kalabo,-14.97,22.6814,291.8,67,13,1.66,ZM,1681944263
173,shunyi,40.125,116.6453,292.12,26,0,5.0,CN,1681944263
174,bernalillo,35.05,-106.6673,297.33,8,20,15.43,US,1681944263
175,mahdia,35.5047,11.0622,290.12,76,100,7.44,TN,1681944263
176,shingu,33.7333,135.9833,292.06,86,100,2.72,JP,1681944264
177,slawkow,50.2994,19.3897,280.47,98,100,1.57,PL,1681944264
178,kedougou,12.5579,-12.1743,306.95,16,13,1.21,SN,1681944264
179,santo antonio,-6.3106,-35.4789,297.04,92,64,2.47,BR,1681944264
180,kapuskasing,49.4169,-82.4331,274.2,75,100,7.2,CA,1681943912
181,ilulissat,69.2167,-51.1,268.16,80,100,2.06,GL,1681943765
182,alice springs,-23.7,133.8833,283.9,87,0,0.0,AU,1681943907
183,zuni pueblo,35.0725,-108.8506,290.5,15,1,15.44,US,1681944265
184,blackmans bay,-43.0167,147.3167,285.78,74,97,3.54,AU,1681943770
185,malabar,-33.9667,151.25,291.92,82,100,10.05,AU,1681944266
186,isafjordur,66.0755,-23.124,280.87,97,100,3.2,IS,1681943769
187,howard springs,-12.497,131.047,297.1,91,31,2.49,AU,1681944266
188,madang,-5.2246,145.7966,299.4,88,74,0.42,PG,1681943890
189,vavozh,56.7751,51.931,279.23,86,90,2.02,RU,1681944267
190,port lincoln,-34.7333,135.8667,288.89,63,93,2.97,AU,1681943801
191,quchan,37.106,58.5095,280.53,21,0,3.05,IR,1681944267
192,alaghsas,17.0187,8.0168,302.97,13,22,2.94,NE,1681944267
193,parabel',58.6978,81.4825,266.28,97,100,2.55,RU,1681944267
194,north bend,43.4065,-124.2243,286.06,80,100,6.17,US,1681944187
195,nago,26.5881,127.9761,298.62,85,100,6.26,JP,1681944268
196,olinda,-8.0089,-34.8553,302.0,74,40,2.57,BR,1681944268
197,ust'-kulom,61.6864,53.6902,270.2,97,59,1.27,RU,1681944268
198,tarasovskiy,48.7292,40.3636,283.54,56,91,6.5,RU,1681944269
199,dire,12.2833,-10.9667,306.01,17,27,0.61,ML,1681944270
200,la paz,-16.5,-68.15,290.14,29,20,5.14,BO,1681944214
201,tual,-5.6667,132.75,301.42,71,40,4.52,ID,1681943903
202,grand falls-windsor,48.9332,-55.6649,276.21,91,100,0.45,CA,1681944270
203,tevriz,57.509,72.4042,269.68,66,36,2.1,RU,1681944270
204,gadzhiyevo,69.2551,33.3362,276.31,90,100,10.26,RU,1681943765
205,corner brook,48.9667,-57.9484,279.24,94,92,2.14,CA,1681944115
206,utrik,11.2278,169.8474,299.91,78,100,8.16,MH,1681943797
207,siliana,36.085,9.3708,288.71,56,95,3.35,TN,1681944271
208,patacamaya,-17.2333,-67.9167,284.99,45,35,2.14,BO,1681944271
209,ujae,8.9322,165.7642,300.69,81,67,7.66,MH,1681944271
210,zhanaozen,43.3,52.8,284.58,19,77,8.21,KZ,1681944272
211,hilo,19.7297,-155.09,299.42,88,100,4.63,US,1681944272
212,walvis bay,-22.9575,14.5053,293.19,57,3,6.82,NA,1681943793
213,hasaki,35.7333,140.8333,291.09,89,93,3.09,JP,1681943862
214,pandan,14.0453,124.1694,300.62,83,11,2.44,PH,1681943869
215,polyarnyy,69.1989,33.4478,276.6,89,100,10.14,RU,1681943595
216,anacapri,40.5558,14.2136,285.49,85,3,1.39,IT,1681944273
217,san antonio de pale,-1.4014,5.6325,301.41,82,99,4.52,GQ,1681943868
218,salinopolis,-0.6136,-47.3561,298.21,89,99,1.73,BR,1681944273
219,sarkand,45.41,79.9186,273.31,47,0,1.26,KZ,1681944273
220,new norfolk,-42.7826,147.0587,286.44,78,100,0.89,AU,1681943890
221,colares,38.7992,-9.4469,289.13,77,60,7.15,PT,1681944274
222,afaahiti,-17.75,-149.2833,303.08,80,96,7.04,PF,1681943877
223,barra de santo antonio,-9.4047,-35.5072,299.75,83,16,5.1,BR,1681944274
224,concepcion,-36.827,-73.0498,290.04,77,0,4.12,CL,1681944121
225,holualoa,19.6228,-155.9522,295.8,89,100,6.17,US,1681943856
226,georgetown,5.4112,100.3354,300.11,94,40,5.14,MY,1681943846
227,qaqortoq,60.7167,-46.0333,273.41,89,85,0.78,GL,1681943839
228,airuk,7.2772,168.8203,301.2,78,100,6.16,MH,1681944275
229,vinh yen,21.31,105.5967,299.12,90,58,2.35,VN,1681944276
230,freetown,8.484,-13.2299,299.99,78,49,5.14,SL,1681944276
231,tokar,18.4254,37.729,298.03,77,0,3.02,SD,1681944276
232,mana,5.6592,-53.7767,298.0,90,100,4.44,GF,1681943918
233,sisimiut,66.9395,-53.6735,265.14,84,66,3.46,GL,1681944277
234,copala,16.65,-98.9833,302.77,59,60,5.84,MX,1681944277
235,fale old settlement,-9.3852,-171.2468,301.31,70,78,1.9,TK,1681943782
236,as salamiyah,35.0113,37.0532,293.05,46,100,6.14,SY,1681944277
237,shaowu,27.3409,117.4831,293.9,96,99,0.72,CN,1681944277
238,kidal,18.4411,1.4078,304.45,6,84,4.11,ML,1681944278
239,gebre guracha,9.8,38.4,288.85,64,92,0.5,ET,1681944278
240,vila velha,-20.3297,-40.2925,302.12,82,0,5.36,BR,1681943736
241,nyurba,63.2842,118.3319,263.91,90,82,1.96,RU,1681943595
242,atbasar,51.8,68.3333,271.51,83,7,2.57,KZ,1681944280
243,moa,20.6569,-74.9403,298.78,81,50,2.57,CU,1681944280
244,koungheul,13.9833,-14.8,306.03,17,23,6.42,SN,1681944281
245,benghazi,32.1167,20.0667,289.82,66,2,3.09,LY,1681944281
246,nuku'alofa,-21.1333,-175.2,298.34,94,75,4.63,TO,1681944281
247,shitanjing,39.2342,106.3439,281.54,27,98,1.33,CN,1681944281
248,karratha,-20.7377,116.8463,295.55,37,6,7.26,AU,1681943762
249,sidney,-33.8679,151.2073,291.69,81,100,1.79,AU,1681944183
250,krasnogorskoye,52.2953,86.1979,258.09,98,90,1.91,RU,1681944282
251,macherla,16.4833,79.4333,301.4,44,4,0.2,IN,1681944282
252,port alfred,-33.5906,26.891,298.74,38,89,4.63,ZA,1681943769
253,kurchum,48.5722,83.6542,269.63,64,3,3.23,KZ,1681944282
254,at-bashi,41.1702,75.8106,274.65,52,100,0.97,KG,1681944283
255,ylitornio,66.3089,23.6773,274.41,100,100,0.92,FI,1681944283
256,adrar,20.5022,-10.0711,300.58,18,100,3.47,MR,1681944283
257,holma,9.9008,13.0567,302.71,39,73,0.09,NG,1681944283
258,bonito,-21.1211,-56.4819,290.27,82,2,1.99,BR,1681944250
259,ancud,-41.8697,-73.8203,286.74,93,91,1.71,CL,1681943868
260,baki,-7.6128,110.7839,297.03,91,90,2.1,ID,1681944284
261,merowe,18.4833,31.8167,300.81,9,0,4.34,SD,1681944284
262,bereznik,62.8551,42.7072,272.93,98,100,1.27,RU,1681944284
263,bathsheba,13.2167,-59.5167,299.49,73,40,5.66,BB,1681944284
264,crane,31.3974,-102.3501,305.54,8,0,5.26,US,1681944284
265,misratah,32.3754,15.0925,291.93,65,82,9.08,LY,1681944285
266,labytnangi,66.6572,66.4183,262.16,92,100,1.84,RU,1681944285
267,sayat,38.7839,63.8803,282.08,33,0,3.51,TM,1681944286
268,aitape,-3.1374,142.3475,299.32,89,100,1.49,PG,1681944286
269,sitka,57.0531,-135.33,285.09,37,20,8.23,US,1681943769
270,tralee,52.2704,-9.7026,280.76,96,46,3.8,IE,1681944286
271,gerash,27.6652,54.1371,293.8,45,91,0.2,IR,1681944287
272,boa vista,2.8197,-60.6733,305.14,48,40,3.6,BR,1681944287
273,punta del este,-34.9667,-54.95,288.69,69,75,8.05,UY,1681944287
274,berezovyy,51.6667,135.7,274.54,70,100,3.9,RU,1681944287
275,gualeguay,-33.1416,-59.3097,285.23,55,6,2.12,AR,1681944287
276,broken hill,-31.95,141.4333,285.62,60,0,7.52,AU,1681944288
277,shahrud,36.4182,54.9763,287.06,34,2,0.93,IR,1681944288
278,vilyuchinsk,52.9306,158.4028,278.3,88,100,3.14,RU,1681943810
279,bamboo flat,11.7,92.7167,301.15,73,43,3.74,IN,1681944289
280,kamaishi,39.2667,141.8833,286.35,49,42,3.64,JP,1681944289
281,ellsworth,44.5434,-68.4195,281.28,72,100,3.6,US,1681944289
282,rio grande,-32.035,-52.0986,286.21,60,87,8.43,BR,1681944289
283,touros,-5.1989,-35.4608,299.63,83,100,4.25,BR,1681943926
284,arauca,7.0847,-70.7591,305.13,51,75,1.54,CO,1681944290
285,santa sylvina,-27.8326,-61.1375,293.18,43,1,2.86,AR,1681944290
286,oranjemund,-28.55,16.4333,287.75,86,80,2.36,NA,1681944290
287,qamdo,31.1667,97.2333,273.86,61,2,2.11,CN,1681943895
288,kayangel,8.0823,134.7173,301.88,75,11,5.11,PW,1681943799
289,fortuna,40.5982,-124.1573,287.54,58,41,1.79,US,1681943698
290,mutum,-19.8,-41.4383,299.08,72,89,2.27,BR,1681943878
291,seven pagodas,12.6264,80.1722,301.51,79,8,4.91,IN,1681943881
292,zeya,53.75,127.2667,270.29,69,100,3.2,RU,1681944291
293,santa rita,-7.1139,-34.9781,301.52,83,20,3.09,BR,1681944292
294,mossel bay,-34.1831,22.146,291.08,80,65,3.45,ZA,1681944292
295,hanover,52.3705,9.7332,282.11,81,100,8.23,DE,1681944014
296,vorkuta,67.5,64.0,265.85,97,100,3.58,RU,1681944292
297,luderitz,-26.6481,15.1594,288.52,79,89,2.63,NA,1681943933
298,raja,8.4596,25.678,302.42,43,91,3.07,SS,1681944293
299,margate,51.3813,1.3862,282.54,75,3,3.58,GB,1681944293
300,sarpol-e zahab,34.4611,45.8626,292.08,45,19,1.34,IR,1681944293
301,kruisfontein,-34.0033,24.7314,292.67,54,100,2.3,ZA,1681944293
302,yuzhno-kurilsk,44.0306,145.8556,279.66,76,37,0.81,RU,1681943780
303,christchurch,-43.5333,172.6333,289.21,82,100,5.66,NZ,1681944163
304,partizansk,43.1258,133.1339,282.25,89,100,1.25,RU,1681944294
305,cantilan,9.3336,125.9775,300.11,82,89,1.31,PH,1681944294
306,poronaysk,49.2167,143.1167,278.53,66,9,3.11,RU,1681944294
307,mukalla,14.5425,49.1242,299.99,71,0,1.62,YE,1681944294
308,ghat,24.9647,10.1728,297.35,12,15,3.73,LY,1681943831
309,sumbe,-11.2061,13.8437,299.74,83,87,2.03,AO,1681944295
310,kempsey,-31.0833,152.8333,292.56,80,80,0.45,AU,1681944295
311,ola,59.5833,151.2833,272.65,76,99,5.23,RU,1681944295
312,aksu,41.1231,80.2644,281.26,64,100,4.4,CN,1681944295
313,iskateley,67.6803,53.1512,272.85,98,100,6.29,RU,1681943853
314,bull savanna,17.8868,-77.5902,298.65,75,27,4.09,JM,1681944296
315,nema,57.5067,50.5011,276.53,93,8,1.59,RU,1681943900
316,lompoc,34.6391,-120.4579,296.31,62,20,11.18,US,1681943778
317,warrnambool,-38.3833,142.4833,285.0,80,83,4.93,AU,1681944296
318,vilyuysk,63.7553,121.6247,266.18,96,93,1.5,RU,1681943595
319,jayapura,-2.5333,140.7,297.81,91,100,0.94,ID,1681944297
320,mityana,0.4175,32.0228,290.16,99,78,0.96,UG,1681944298
321,keflavik,64.0049,-22.5624,281.39,93,100,10.29,IS,1681943932
322,pago pago,-14.2781,-170.7025,301.0,79,68,8.81,AS,1681944100
323,jining,35.405,116.5814,290.27,87,0,3.29,CN,1681944298
324,kroya,-7.6331,109.2461,298.45,89,74,1.34,ID,1681944299
325,north battleford,52.7834,-108.2847,273.2,80,100,7.72,CA,1681944299
326,stjordalshalsen,63.4681,10.9262,279.77,75,0,4.12,NO,1681944299
327,luwuk,-0.9516,122.7875,299.75,86,88,0.25,ID,1681944300
328,medina,24.4686,39.6142,295.39,56,40,1.54,SA,1681944104
329,itoman,26.1247,127.6694,298.58,94,75,8.75,JP,1681943903
330,aranyaprathet,13.6928,102.5013,299.34,86,14,2.26,TH,1681944300
331,manay,7.215,126.5397,300.85,76,61,0.8,PH,1681944301
332,kenai,60.5544,-151.2583,280.2,56,0,3.6,US,1681943847
333,bang saphan,11.2126,99.5117,298.27,89,16,2.49,TH,1681944302
334,aswan,24.0934,32.907,302.76,12,0,0.0,EG,1681944303
335,port hedland,-20.3167,118.5667,295.18,43,92,7.72,AU,1681944303
336,mancio lima,-7.6142,-72.8958,299.19,100,100,3.6,BR,1681944304
337,tomatlan,19.9333,-105.25,303.51,42,6,5.73,MX,1681943882
338,nikolayevsk-on-amure,53.1406,140.73,275.57,66,89,1.6,RU,1681943716
339,silver city,32.7701,-108.2803,293.92,17,1,9.39,US,1681944304
340,fortaleza,-3.7227,-38.5247,301.6,83,20,2.06,BR,1681944165
341,caleta de carquin,-11.0925,-77.6267,296.85,79,25,7.04,PE,1681944305
342,santa barbara,34.7333,-120.0343,292.59,25,0,8.75,US,1681944220
343,bikenibeu village,1.3673,173.1241,304.13,70,40,3.6,KI,1681943914
344,manga,11.6636,-1.0731,304.59,42,83,2.97,BF,1681944306
345,reggane,26.7158,0.1714,300.7,12,0,4.25,DZ,1681944306
346,egersund,58.4513,5.9997,284.31,80,0,2.18,NO,1681944306
347,andergrove,-21.0833,149.1833,299.06,67,34,6.35,AU,1681943771
348,kill devil hills,36.0307,-75.676,291.16,76,0,3.6,US,1681943922
349,pisogne,45.8101,10.1073,286.16,66,97,1.34,IT,1681944307
350,dakhla,23.6848,-15.958,292.0,88,1,4.77,EH,1681944307
351,blackwater,-23.5833,148.8833,296.99,58,2,5.3,AU,1681944308
352,khandyga,62.6667,135.6,270.26,90,100,1.54,RU,1681943853
353,vila franca do campo,37.7167,-25.4333,287.38,90,99,5.66,PT,1681944308
354,asasa,7.1,39.2,286.56,81,33,1.19,ET,1681944309
355,rokytne,51.2796,27.214,281.82,84,98,3.07,UA,1681944309
356,okene,7.5981,6.2318,299.04,87,100,1.78,NG,1681944309
357,moose jaw,50.4001,-105.5344,271.29,93,100,9.77,CA,1681944309
358,sola,-13.8833,167.55,300.6,72,100,2.63,VU,1681944309
359,chibougamau,49.9168,-74.3659,269.94,68,100,4.12,CA,1681944193
360,sadovoye,47.7764,44.5089,281.93,47,47,4.81,RU,1681944310
361,quarai,-30.3875,-56.4514,283.43,78,42,2.77,BR,1681944251
362,vila do maio,15.1333,-23.2167,296.59,78,65,6.41,CV,1681944310
363,royse city,32.9751,-96.3325,301.31,66,100,6.17,US,1681944311
364,karliova,39.2983,41.0142,279.58,94,100,2.25,TR,1681944311
365,usinsk,65.9939,57.5281,270.93,95,100,5.56,RU,1681944311
366,lerwick,60.1545,-1.1494,280.15,81,22,2.72,GB,1681943776
367,wakkanai,45.4094,141.6739,280.09,87,99,7.25,JP,1681944312
368,kurchatov,51.6601,35.6521,285.38,85,100,7.49,RU,1681944312
369,harnosand,62.6323,17.9379,276.15,98,100,2.16,SE,1681944312
370,arraial do cabo,-22.9661,-42.0278,297.13,83,75,3.09,BR,1681943776
371,tazovsky,67.4667,78.7,258.5,100,95,2.06,RU,1681943923
372,port douglas,-16.4833,145.4667,299.11,77,27,4.33,AU,1681944313
373,dwarka,22.2394,68.9678,299.81,74,45,6.15,IN,1681943874
374,nurota,40.5614,65.6886,279.39,47,0,3.01,UZ,1681944313
375,cumra,37.5732,32.7745,283.23,46,0,2.63,TR,1681944313
376,salalah,17.0151,54.0924,301.2,74,40,2.06,OM,1681943828
377,san luis de la loma,17.2706,-100.8939,302.55,57,71,4.36,MX,1681944314
378,vrontados,38.4089,26.1328,287.2,76,13,2.53,GR,1681944314
379,queenstown,-31.8976,26.8753,289.18,32,53,2.73,ZA,1681943779
380,sharm el-sheikh,27.8518,34.305,299.23,53,0,3.09,EG,1681944314
381,sosnovo-ozerskoye,52.5249,111.5418,259.7,69,88,8.94,RU,1681943811
382,howrah,22.5892,88.3103,303.15,79,40,1.54,IN,1681943766
383,cidreira,-30.1811,-50.2056,287.44,76,80,5.79,BR,1681943927
384,male,4.1748,73.5089,301.12,89,20,1.54,MV,1681944294
385,uacu cungo,-11.3634,15.1208,291.19,94,100,0.73,AO,1681944315
386,nemuro,43.3236,145.575,277.97,87,84,2.53,JP,1681943794
387,mar del plata,-38.0023,-57.5575,286.45,68,20,3.09,AR,1681944316
388,lake havasu city,34.4839,-114.3224,298.83,11,0,8.75,US,1681944125
389,lichuan,30.3,108.85,288.01,90,73,2.42,CN,1681944316
390,las lomitas,-24.7096,-60.593,294.13,59,0,2.51,AR,1681944316
391,ta`u,-14.2336,-169.5144,301.78,77,91,8.81,AS,1681943874
392,visakhapatnam,17.69,83.2093,298.63,53,7,1.26,IN,1681944043
393,las veredas,23.1388,-109.7075,300.91,61,75,5.14,MX,1681944317
394,ytrebygda,60.305,5.2824,282.93,72,0,0.0,NO,1681944317
395,el nido,11.1858,119.3956,301.02,77,6,2.21,PH,1681943921
396,mount gambier,-37.8333,140.7667,287.77,75,100,2.64,AU,1681943792
397,smithers,54.7804,-127.1743,282.33,46,75,1.54,CA,1681944318
398,codrington,-38.2667,141.9667,286.3,78,89,3.81,AU,1681943845
399,taksimo,56.3444,114.8794,266.46,67,100,2.06,RU,1681943866
400,kudahuvadhoo,2.6708,72.8944,301.49,72,95,1.88,MV,1681944318
401,mount isa,-20.7333,139.5,294.02,35,80,3.6,AU,1681943872
402,marsh harbour,26.5412,-77.0636,296.64,75,100,9.16,BS,1681944319
403,miramichi,47.0043,-65.4654,278.31,90,100,1.15,CA,1681944319
404,urucara,-2.5364,-57.76,298.0,92,59,1.35,BR,1681943882
405,passos,-20.7189,-46.6097,290.81,92,84,2.11,BR,1681944320
406,jogeva,58.7467,26.3939,278.65,83,8,2.38,EE,1681944320
407,bac lieu,9.285,105.7244,299.85,84,46,2.15,VN,1681944320
408,puerto cabezas,14.0351,-83.3888,303.13,84,40,2.06,NI,1681943925
409,deniliquin,-35.5333,144.9667,285.91,63,30,5.18,AU,1681944320
410,xylokastro,38.0776,22.6317,287.59,57,21,1.34,GR,1681944321
411,imishli,39.8709,48.06,283.62,82,71,2.84,AZ,1681944321
412,bonthe,7.5264,-12.505,300.75,83,30,2.25,SL,1681944321
413,francistown,-21.17,27.5079,288.29,52,1,3.89,BW,1681944321
414,toamasina,-18.1667,49.3833,297.15,94,75,1.54,MG,1681944322
415,toliara,-23.35,43.6667,297.28,71,11,2.42,MG,1681944104
416,callao,-12.0667,-77.15,298.31,61,0,8.23,PE,1681944322
417,akureyri,65.6835,-18.0878,284.11,66,0,4.12,IS,1681944322
418,kashgar,39.4547,75.9797,283.71,50,75,2.0,CN,1681944322
419,altar,30.7,-111.8167,301.63,15,0,7.92,MX,1681944322
420,belyy yar,53.6039,91.3903,270.09,50,0,7.0,RU,1681944323
421,susuman,62.7833,148.1667,266.37,79,100,3.09,RU,1681943844
422,dnipro,48.45,34.9833,282.43,92,100,1.11,UA,1681944301
423,kavaratti,10.5669,72.642,301.36,73,22,3.47,IN,1681943851
424,ambon,-3.6954,128.1814,299.23,94,40,1.54,ID,1681944323
425,dien bien phu,21.3833,103.0167,293.79,47,0,1.17,VN,1681944324
426,levuka,50.1834,-105.4011,270.99,97,100,8.33,CA,1681944324
427,puerto colombia,10.9878,-74.9547,302.2,82,93,9.94,CO,1681944324
428,sabang,5.8933,95.3214,301.64,73,100,5.19,ID,1681944324
429,weno,7.4515,151.8468,301.12,83,100,4.12,FM,1681943773
430,waingapu,-9.6567,120.2641,297.53,79,48,4.17,ID,1681943875
431,banjul,13.45,-16.5833,296.33,68,0,3.6,GM,1681944327
432,aykhal,66.0,111.5,260.41,99,100,2.38,RU,1681943892
433,porto novo,6.4965,2.6036,301.05,80,71,2.01,BJ,1681944327
434,okhotsk,59.3833,143.3,269.34,73,46,4.19,RU,1681944328
435,winnemucca,40.973,-117.7357,280.18,33,100,1.54,US,1681944328
436,majuro,7.0897,171.3803,303.13,79,75,4.12,MH,1681944084
437,mejit,10.2753,170.8646,299.84,82,95,8.02,MH,1681943930
438,camana,-16.6228,-72.7111,294.75,77,55,1.67,PE,1681944329
439,pervomaysk,48.0443,30.8507,282.4,92,100,4.43,UA,1681944329
440,kuta,-8.7233,115.1723,300.12,83,20,1.03,ID,1681943906
441,tura,25.5198,90.2201,297.3,84,49,4.07,IN,1681943804
442,campoverde,-8.4753,-74.8058,302.98,83,99,0.23,PE,1681944329
443,buseresere,-3.0236,31.8747,290.11,96,19,2.14,TZ,1681944330
444,chinchilla,-26.75,150.6333,293.74,52,2,4.15,AU,1681944330
445,platteville,42.7342,-90.4785,281.88,95,100,4.41,US,1681944330
446,ugoofaaru,5.6667,73.0,301.1,75,37,1.28,MV,1681944330
447,biograd na moru,43.9433,15.4519,286.35,75,3,2.51,HR,1681944331
448,jeremie,18.65,-74.1167,299.24,77,8,1.68,HT,1681943883
449,mantes-la-jolie,49.0,1.6667,286.19,55,95,6.58,FR,1681944331
450,wainwright,52.839,-110.8572,275.35,61,100,5.47,CA,1681944331
451,mbeni,-11.5014,43.3775,296.93,79,100,2.08,KM,1681944331
452,jinchang,38.4953,102.1739,278.85,30,40,1.54,CN,1681944331
453,bel ombre,-4.6167,55.4167,300.06,83,75,2.57,SC,1681943897
454,taseyevo,57.2169,94.8978,266.47,89,100,1.77,RU,1681944332
455,mineiros,-17.5694,-52.5511,293.08,96,99,2.69,BR,1681944332
456,lebowakgomo,-24.2,29.5,287.4,59,0,1.42,ZA,1681944332
457,cabo san lucas,22.8909,-109.9124,300.71,50,40,4.63,MX,1681943616
458,kirando,-7.4167,30.6,295.13,81,27,2.57,TZ,1681944333
459,bima,-8.4667,118.7167,298.57,88,53,1.93,ID,1681944333
460,naze,28.3667,129.4833,293.66,97,100,1.17,JP,1681943760
461,northam,51.0333,-4.2167,283.49,66,16,9.32,GB,1681943866
462,birao,10.2849,22.7882,302.23,15,30,3.13,CF,1681944333
463,camarinas,43.1311,-9.1817,287.69,90,77,6.23,ES,1681944334
464,erenhot,43.6475,111.9767,276.73,24,46,1.5,CN,1681944334
465,praia da vitoria,38.7333,-27.0667,285.29,82,40,7.82,PT,1681943849
466,labasa,-16.4167,179.3833,300.72,76,74,0.9,FJ,1681944334
467,mhlume,-26.0333,31.85,292.72,97,0,1.84,SZ,1681944335
468,oroquieta,8.4858,123.8044,300.85,76,15,0.98,PH,1681944335
469,gaillac,43.9016,1.8969,285.46,80,5,1.13,FR,1681944335
470,ibarreta,-25.2144,-59.8585,293.91,58,0,2.53,AR,1681944335
471,taroa,8.7058,171.2275,300.61,81,83,6.62,MH,1681944336
472,khovd,48.0056,91.6419,269.49,31,0,3.34,MN,1681944336
473,vila nova de paiva,40.8659,-7.7613,279.77,70,63,0.87,PT,1681944336
474,jaisinghnagar,23.7,81.3833,300.21,23,67,2.33,IN,1681944336
475,gusinoozyorsk,51.2833,106.5,262.92,59,10,1.88,RU,1681944336
476,al wasitah,29.3378,31.2056,291.82,62,35,9.02,EG,1681944337
477,dunedin,-45.8742,170.5036,288.75,84,65,2.24,NZ,1681944267
478,nizhneudinsk,54.9076,99.0276,265.35,65,99,1.8,RU,1681944337
479,jianshui,23.6363,102.8264,291.62,41,0,1.73,CN,1681944337
480,hiratacho,35.4333,132.8167,289.16,100,20,2.06,JP,1681944338
481,inhambane,-23.865,35.3833,293.24,80,0,1.72,MZ,1681943910
482,nejdek,50.3224,12.7294,274.17,91,0,0.51,CZ,1681944338
483,colonel hill,22.7667,-74.2167,299.28,73,8,3.96,BS,1681944338
484,funafuti,-8.5243,179.1942,303.15,79,40,0.51,TV,1681944338
485,breckenridge,32.7557,-98.9023,305.26,35,40,7.2,US,1681944213
486,ormond-by-the-sea,29.3491,-81.0665,298.28,60,0,5.66,US,1681944339
487,yoichi,43.2039,140.7703,283.02,66,100,2.89,JP,1681944339
488,rio gallegos,-51.6226,-69.2181,286.18,47,0,10.29,AR,1681943769
489,cuenca,-2.8833,-78.9833,291.22,68,75,6.69,EC,1681944339
490,qulsary,46.9531,54.0198,283.07,36,98,5.5,KZ,1681944339
491,lorengau,-2.0226,147.2712,301.76,72,34,2.47,PG,1681944340
492,port macquarie,-31.4333,152.9167,292.53,63,81,1.64,AU,1681944340
493,buka,40.8108,69.1986,281.52,55,0,1.18,UZ,1681944340
494,'ain el melh,34.8415,4.1638,291.58,30,78,5.17,DZ,1681944340
495,mount pearl,47.5166,-52.7813,274.73,93,100,6.17,CA,1681944341
496,marquette,46.5333,-87.6335,273.84,77,100,0.89,US,1681944342
497,carbonear,47.7332,-53.2148,275.45,91,100,5.55,CA,1681944085
498,kigoma,-4.8769,29.6267,297.43,72,10,2.05,TZ,1681944342
499,ciudad del carmen,18.6333,-91.8333,303.17,70,40,7.72,MX,1681944342
500,leer,53.2316,7.461,281.45,76,41,0.45,DE,1681944343
501,bodo,67.28,14.405,280.62,90,100,9.26,NO,1681944343
502,cabedelo,-6.9811,-34.8339,301.52,82,27,4.75,BR,1681943908
503,al hudaydah,14.7978,42.9545,301.49,82,55,3.98,YE,1681944343
504,ciudad hidalgo,19.6833,-100.5667,298.99,22,80,5.1,MX,1681944343
505,zeribet el oued,34.6828,6.5111,298.29,21,87,2.9,DZ,1681944344
506,fort morgan,40.2503,-103.8,289.83,81,100,18.52,US,1681944344
507,grissom air force base,40.6575,-86.1476,299.2,34,0,7.72,US,1681944344
508,zara,44.1197,15.2422,283.49,87,20,1.54,HR,1681944344
509,kuanda,56.3161,116.0806,266.4,75,100,2.56,RU,1681943934
510,chetwayi,10.5333,76.05,300.53,81,28,2.03,IN,1681944345
511,mil'kovo,55.6078,37.7956,282.37,59,74,2.87,RU,1681943888
512,westport,41.1415,-73.3579,289.76,44,0,4.63,US,1681943900
513,belmonte,-15.8631,-38.8828,300.47,87,5,5.31,BR,1681943899
514,luanda,-8.8368,13.2343,297.15,88,75,3.6,AO,1681944345
515,genhe,50.7833,121.5167,270.62,93,100,3.81,CN,1681944346
516,mermoz boabab,14.7065,-17.4758,293.46,94,0,6.17,SN,1681944347
517,kijang,35.2442,129.2139,291.0,83,18,1.55,KR,1681944348
518,lafia,8.4833,8.5167,300.23,75,82,2.24,NG,1681944349
519,fort bragg,35.139,-79.006,302.47,24,75,3.6,US,1681943775
520,brady,31.1352,-99.3351,302.68,51,75,8.23,US,1681944349
521,pesqueira,-8.3578,-36.6964,298.7,64,97,2.82,BR,1681944349
522,chrudim,49.9511,15.7956,278.3,81,0,1.54,CZ,1681944350
523,port augusta,-32.5,137.7667,288.64,57,0,4.47,AU,1681943775
524,bandarbeyla,9.4942,50.8122,300.68,69,59,2.71,SO,1681944350
525,haiku-pauwela,20.9219,-156.3051,296.51,96,100,7.72,US,1681943815
526,midvagur,62.0511,-7.1939,279.61,87,0,1.54,FO,1681943914
527,tindouf,27.6711,-8.1474,290.59,58,45,10.36,DZ,1681944350
528,mucuri,-18.0864,-39.5508,300.13,85,81,1.79,BR,1681944351
529,torbeyevo,54.0797,43.2473,282.23,49,99,1.55,RU,1681944351
530,amungan,15.3652,119.9582,301.2,77,0,3.38,PH,1681944351
531,kourou,5.1552,-52.6478,298.18,94,99,3.34,GF,1681944351
532,mwene-ditu,-7.0,23.45,292.41,96,40,1.95,CD,1681944351
533,piacabucu,-10.4056,-36.4344,300.39,83,47,7.06,BR,1681944352
534,slave lake,55.2834,-114.769,276.14,81,100,3.09,CA,1681944345
535,hamilton,39.1834,-84.5333,300.5,36,0,4.63,US,1681943730
536,yakutsk,62.0339,129.7331,272.13,68,20,5.0,RU,1681944231
537,vermillion,42.7794,-96.9292,290.21,94,100,3.67,US,1681944352
538,colonia,50.9333,6.95,282.56,50,0,1.54,DE,1681943667
539,alupka,44.4167,34.05,283.4,91,86,3.81,UA,1681944353
540,hinjilikatu,19.4833,84.75,301.81,41,1,0.17,IN,1681944353
541,tateyama,34.9833,139.8667,290.94,84,100,1.89,JP,1681944353
542,selfoss,63.9331,-20.9971,280.63,93,36,3.56,IS,1681943881
543,celestun,20.8667,-90.4,298.77,77,1,12.01,MX,1681944353
544,navan,53.6528,-6.6814,283.74,73,89,7.54,IE,1681944354
545,pitimbu,-7.4706,-34.8086,301.48,90,32,3.2,BR,1681944354
546,santa ana,33.7456,-117.8678,297.57,50,20,6.17,US,1681943757
547,paijan,-7.7333,-79.3022,298.72,65,84,4.21,PE,1681944354
548,el granada,37.5027,-122.4694,292.29,51,0,7.72,US,1681944194
549,island harbour,50.724,-1.2758,282.85,78,77,4.02,GB,1681944354
550,mcalester,34.9334,-95.7697,298.2,71,75,7.72,US,1681944355
551,dehui,44.5333,125.7,281.97,27,100,8.87,CN,1681944355
552,ubinskoye,55.3068,79.6802,269.14,74,72,3.14,RU,1681944355
553,bolivar,37.6145,-93.4105,298.22,64,100,0.45,US,1681944355
554,goure,13.9835,10.2704,302.95,14,1,2.97,NE,1681944355
555,korla,41.7597,86.1469,280.87,24,100,2.87,CN,1681944356
556,morehead city,34.7229,-76.726,299.17,64,0,4.02,US,1681944356
557,riyadh,24.6877,46.7219,291.23,55,89,2.6,SA,1681944300
558,tsiroanomandidy,-18.7667,46.0333,292.62,87,60,0.82,MG,1681944356
